[
    {
        "code": "MPB",
        "name": "กองบัญชาการตำรวจนครบาล",
        "provinces": [
            {
                "code": "BKK",
                "name": "กรุงเทพมหานคร",
                "stations": [
                    {
                        "code": "STL01",
                        "name": "สน.ทองหล่อ",
                        "address": "89 ซ.ทองหล่อ 10 แขวงคลองตันเหนือ เขตวัฒนา กรุงเทพฯ 10110",
                        "latitude": 13.7433,
                        "longitude": 100.5547
                    },
                    {
                        "code": "SPR01",
                        "name": "สน.พระโขนง",
                        "address": "123 ถ.สุขุมวิท 71 แขวงพระโขนงเหนือ เขตวัฒนา กรุงเทพฯ 10110",
                        "latitude": 13.7120,
                        "longitude": 100.5985
                    },
                    {
                        "code": "SAT01",
                        "name": "สน.สาทร",
                        "address": "456 ถ.สาทรใต้ แขวงสีลม เขตบางรัก กรุงเทพฯ 10500",
                        "latitude": 13.7220,
                        "longitude": 100.5270
                    },
                    {
                        "code": "SLP01",
                        "name": "สน.ลุมพินี",
                        "address": "789 ถ.พระราม 4 แขวงลุมพินี เขตปทุมวัน กรุงเทพฯ 10330",
                        "latitude": 13.7310,
                        "longitude": 100.5420
                    }
                ]
            }
        ]
    },
    {
        "code": "PPH1",
        "name": "ตำรวจภูธรภาค 1",
        "provinces": [
            {
                "code": "SRB",
                "name": "สระบุรี",
                "stations": [
                    {
                        "code": "SRB01",
                        "name": "สภ.เมืองสระบุรี",
                        "address": "ถ.พหลโยธิน ต.ปากเพรียว อ.เมืองสระบุรี จ.สระบุรี 18000",
                        "latitude": 14.5289,
                        "longitude": 100.9100
                    },
                    {
                        "code": "SRB02",
                        "name": "สภ.แก่งคอย",
                        "address": "ถ.มิตรภาพ ต.แก่งคอย อ.แก่งคอย จ.สระบุรี 18110",
                        "latitude": 14.5887,
                        "longitude": 100.9847
                    },
                    {
                        "code": "SRB03",
                        "name": "สภ.หนองแค",
                        "address": "ถ.พหลโยธิน ต.หนองแค อ.หนองแค จ.สระบุรี 18140",
                        "latitude": 14.3384,
                        "longitude": 100.8656
                    },
                    {
                        "code": "SRB04",
                        "name": "สภ.พระพุทธบาท",
                        "address": "ถ.พหลโยธิน ต.พระพุทธบาท อ.พระพุทธบาท จ.สระบุรี 18120",
                        "latitude": 14.7227,
                        "longitude": 100.7917
                    },
                    {
                        "code": "SRB05",
                        "name": "สภ.วิหารแดง",
                        "address": "ต.หนองหมู อ.วิหารแดง จ.สระบุรี 18150",
                        "latitude": 14.3836,
                        "longitude": 100.9461
                    },
                    {
                        "code": "SRB06",
                        "name": "สภ.บ้านหมอ",
                        "address": "ต.บ้านหมอ อ.บ้านหมอ จ.สระบุรี 18130",
                        "latitude": 14.5182,
                        "longitude": 100.7162
                    },
                    {
                        "code": "SRB07",
                        "name": "สภ.มวกเหล็ก",
                        "address": "ถ.มิตรภาพ ต.มวกเหล็ก อ.มวกเหล็ก จ.สระบุรี 18180",
                        "latitude": 14.6447,
                        "longitude": 101.1931
                    },
                    {
                        "code": "SRB08",
                        "name": "สภ.หนองโดน",
                        "address": "ต.หนองโดน อ.หนองโดน จ.สระบุรี 18190",
                        "latitude": 14.7027,
                        "longitude": 100.7167
                    },
                    {
                        "code": "SRB09",
                        "name": "สภ.เสาไห้",
                        "address": "ต.เมืองเก่า อ.เสาไห้ จ.สระบุรี 18160",
                        "latitude": 14.4627,
                        "longitude": 100.8767
                    },
                    {
                        "code": "SRB10",
                        "name": "สภ.วังม่วง",
                        "address": "ต.วังม่วง อ.วังม่วง จ.สระบุรี 18220",
                        "latitude": 14.6987,
                        "longitude": 101.1027
                    },
                    {
                        "code": "SRB11",
                        "name": "สภ.หนองแซง",
                        "address": "ต.หนองแซง อ.หนองแซง จ.สระบุรี 18170",
                        "latitude": 14.2478,
                        "longitude": 100.8656
                    },
                    {
                        "code": "SRB12",
                        "name": "สภ.ดอนพุด",
                        "address": "ต.ดอนพุด อ.ดอนพุด จ.สระบุรี 18210",
                        "latitude": 14.4278,
                        "longitude": 100.7156
                    },
                    {
                        "code": "SRB13",
                        "name": "สภ.เฉลิมพระเกียรติ",
                        "address": "ต.ห้วยบง อ.เฉลิมพระเกียรติ จ.สระบุรี 18000",
                        "latitude": 14.4878,
                        "longitude": 100.9856
                    },
                    {
                        "code": "SRB14",
                        "name": "สภ.หน้าพระลาน",
                        "address": "ต.หน้าพระลาน อ.เฉลิมพระเกียรติ จ.สระบุรี 18240",
                        "latitude": 14.5478,
                        "longitude": 100.9556
                    },
                    {
                        "code": "SRB15",
                        "name": "สภ.หินซ้อน",
                        "address": "ต.หินซ้อน อ.แก่งคอย จ.สระบุรี 18110",
                        "latitude": 14.5200,
                        "longitude": 101.0400
                    }
                ]
            }
        ]
    }
]